[
    {
        "city": "台南市",
        "district": "中西區",
        "name": "老龐家傳牛肉麵-保安總店",
        "food_type": [
            "台式",
            "牛肉麵"
        ],
        "address": "700台南市中西區保安路22號",
        "phone": "062055396",
        "geo": "22.990330941273367, 120.19711728075148",
        "google_map": "https://maps.app.goo.gl/Ezi8Lsrorr2BtFbE8",
        "footinder": "https://footinder.com.tw/%E5%8F%B0%E5%8D%97%E5%B8%82%E4%B8%AD%E8%A5%BF%E5%8D%80/181095/",
        "official": "https://www.facebook.com/p/%E8%80%81%E9%BE%90%E5%AE%B6%E5%82%B3%E7%89%9B%E8%82%89%E9%BA%B5-100064117776154/",
        "award": [
            {
                "name": "台北國際牛肉麵節",
                "year": "2024",
                "group": "鮮食組",
                "cooking_style": "紅燒",
                "rank": "金牌"
            }
        ]
    },
    {
        "city": "台南市",
        "district": "東區",
        "name": "老龐家傳牛肉麵-仁和店",
        "food_type": [
            "台式",
            "牛肉麵"
        ],
        "address": "701台南市東區仁和路39號",
        "phone": "062674658",
        "geo": "22.977828949436404, 120.23024977020305",
        "google_map": "https://maps.app.goo.gl/RyfXyUaLTFLFE1WE9",
        "footinder": "",
        "official": "https://www.facebook.com/p/%E8%80%81%E9%BE%90%E5%AE%B6%E5%82%B3%E7%89%9B%E8%82%89%E9%BA%B5-100064117776154/",
        "award": [
            {
                "name": "台北國際牛肉麵節",
                "year": "2024",
                "group": "鮮食組",
                "cooking_style": "紅燒",
                "rank": "金牌"
            }
        ]
    },
    {
        "city": "台中市",
        "district": "西屯區",
        "name": "老龐家傳牛肉麵西屯店",
        "food_type": [
            "台式",
            "牛肉麵"
        ],
        "address": "407台中市西屯區甘肅路一段199號",
        "phone": "0423168838",
        "geo": "24.16857398709539, 120.6567474182163",
        "google_map": "https://maps.app.goo.gl/KTcjuJFhLsuEn4rE7",
        "footinder": "",
        "official": "https://www.facebook.com/p/%E8%80%81%E9%BE%90%E5%AE%B6%E5%82%B3%E7%89%9B%E8%82%89%E9%BA%B5-100064117776154/",
        "award": [
            {
                "name": "台北國際牛肉麵節",
                "year": "2024",
                "group": "鮮食組",
                "cooking_style": "紅燒",
                "rank": "金牌"
            }
        ]
    },
    {
        "city": "澎湖縣",
        "district": "馬公市",
        "name": "老龐家傳牛肉麵-澎湖店",
        "food_type": [
            "台式",
            "牛肉麵"
        ],
        "address": "880澎湖縣馬公市三民路45號",
        "phone": "069266657",
        "geo": "23.567120200740657, 119.56823084065023",
        "google_map": "https://maps.app.goo.gl/dFsov4Lz9S2cwRjy9",
        "footinder": "",
        "official": "https://www.facebook.com/p/%E8%80%81%E9%BE%90%E5%AE%B6%E5%82%B3%E7%89%9B%E8%82%89%E9%BA%B5-100064117776154/",
        "award": [
            {
                "name": "台北國際牛肉麵節",
                "year": "2024",
                "group": "鮮食組",
                "cooking_style": "紅燒",
                "rank": "金牌"
            }
        ]
    },
    {
        "city": "台北市",
        "district": "信義區",
        "name": "岩漿漢方麻辣火鍋-微風信義店",
        "food_type": [
            "台式",
            "牛肉麵",
            "火鍋"
        ],
        "address": "110台北市信義區忠孝東路五段68號4樓",
        "phone": "0227290299",
        "geo": "25.04068526991549, 121.56696363608249",
        "google_map": "https://maps.app.goo.gl/RXqs5x1Z6tjudjmk8",
        "footinder": "",
        "official": "https://yenchiang-hotpot.com/",
        "award": [
            {
                "name": "台北國際牛肉麵節",
                "year": "2024",
                "group": "鮮食組",
                "cooking_style": "紅燒",
                "rank": "金牌"
            }
        ]
    },
    {
        "city": "台中市",
        "district": "南屯區",
        "name": "岩漿漢方麻辣火鍋-台中公益店",
        "food_type": [
            "台式",
            "牛肉麵",
            "火鍋"
        ],
        "address": "408台中市南屯區公益路二段889號",
        "phone": "0423830868",
        "geo": "24.151187384229807, 120.62802264372952",
        "google_map": "https://maps.app.goo.gl/twT1taJ2Mf3CfGMdA",
        "footinder": "https://footinder.com.tw/%E5%8F%B0%E4%B8%AD%E5%B8%82%E5%8D%97%E5%B1%AF%E5%8D%80/101944/",
        "official": "https://yenchiang-hotpot.com/",
        "award": [
            {
                "name": "台北國際牛肉麵節",
                "year": "2024",
                "group": "鮮食組",
                "cooking_style": "紅燒",
                "rank": "金牌"
            }
        ]
    },
    {
        "city": "新竹縣",
        "district": "竹北市",
        "name": "岩漿漢方麻辣火鍋-竹北復興店",
        "food_type": [
            "台式",
            "牛肉麵",
            "火鍋"
        ],
        "address": "302新竹縣竹北市復興一街236號",
        "phone": "036579651",
        "geo": "24.812706021584972, 121.03344953366965",
        "google_map": "https://maps.app.goo.gl/EB45HNLJBzzC2Vfo6",
        "footinder": "https://footinder.com.tw/%e6%96%b0%e7%ab%b9%e7%b8%a3%e7%ab%b9%e5%8c%97%e5%b8%82/123043/",
        "official": "https://yenchiang-hotpot.com/",
        "award": [
            {
                "name": "台北國際牛肉麵節",
                "year": "2024",
                "group": "鮮食組",
                "cooking_style": "紅燒",
                "rank": "金牌"
            }
        ]
    },
    {
        "city": "新竹市",
        "district": "北區",
        "name": "岩漿漢方麻辣火鍋-新竹經國店",
        "food_type": [
            "台式",
            "牛肉麵",
            "火鍋"
        ],
        "address": "300新竹市北區東大路二段78號",
        "phone": "035357618",
        "geo": "24.813703999959007, 120.96791033433041",
        "google_map": "https://maps.app.goo.gl/NWiEifXXsG631pcH7",
        "footinder": "https://footinder.com.tw/%e6%96%b0%e7%ab%b9%e5%b8%82%e5%8c%97%e5%8d%80/130148/",
        "official": "https://yenchiang-hotpot.com/",
        "award": [
            {
                "name": "台北國際牛肉麵節",
                "year": "2024",
                "group": "鮮食組",
                "cooking_style": "紅燒",
                "rank": "金牌"
            }
        ]
    },
    {
        "city": "新竹縣",
        "district": "竹東鎮",
        "name": "岩漿漢方麻辣火鍋-竹東明星店",
        "food_type": [
            "台式",
            "牛肉麵",
            "火鍋"
        ],
        "address": "310新竹縣竹東鎮明星一路110號",
        "phone": "035821318",
        "geo": "24.774727749029456, 121.05453339218039",
        "google_map": "https://maps.app.goo.gl/EckBtSjE9T2D5jdK6",
        "footinder": "https://footinder.com.tw/%e6%96%b0%e7%ab%b9%e7%b8%a3%e7%ab%b9%e6%9d%b1%e9%8e%ae/84846/",
        "official": "https://yenchiang-hotpot.com/",
        "award": [
            {
                "name": "台北國際牛肉麵節",
                "year": "2024",
                "group": "鮮食組",
                "cooking_style": "紅燒",
                "rank": "金牌"
            }
        ]
    },
    {
        "city": "台北市",
        "district": "大安區",
        "name": "八方雲集",
        "food_type": [
            "台式",
            "牛肉麵"
        ],
        "address": "分店眾多請自行搜尋",
        "phone": "",
        "geo": "",
        "google_map": "https://www.google.com/maps/search/%E5%85%AB%E6%96%B9%E9%9B%B2%E9%9B%86/@25.0930498,121.5384948,14z/data=!3m1!4b1?entry=ttu&g_ep=EgoyMDI1MDYxNi4wIKXMDSoASAFQAw%3D%3D",
        "footinder": "https://footinder.com.tw/%E5%8F%B0%E5%8C%97%E5%B8%82%E4%BF%A1%E7%BE%A9%E5%8D%80/180217/",
        "official": "https://www.8way.com.tw/",
        "award": [
            {
                "name": "台北國際牛肉麵節",
                "year": "2024",
                "group": "鮮食組",
                "cooking_style": "紅燒",
                "rank": "金牌"
            }
        ]
    },
    {
        "city": "花蓮縣",
        "district": "花蓮市",
        "name": "六里屯麵食專家 美崙旗艦店",
        "food_type": [
            "台式",
            "牛肉麵"
        ],
        "address": "970花蓮縣花蓮市中美路303巷2號",
        "phone": "038227766",
        "geo": "23.998933795432528, 121.6320680987923",
        "google_map": "https://maps.app.goo.gl/BnDWbsmMxoAV2PTT7",
        "footinder": "https://footinder.com.tw/%E8%8A%B1%E8%93%AE%E7%B8%A3%E8%8A%B1%E8%93%AE%E5%B8%82/10010/",
        "official": "https://www.facebook.com/LltMeilun/",
        "award": [
            {
                "name": "台北國際牛肉麵節",
                "year": "2024",
                "group": "鮮食組",
                "cooking_style": "紅燒",
                "rank": "銀牌"
            }
        ]
    },
    {
        "city": "花蓮縣",
        "district": "吉安鄉",
        "name": "六里屯麵食專家",
        "food_type": [
            "台式",
            "牛肉麵"
        ],
        "address": "973花蓮縣吉安鄉建國路一段302號",
        "phone": "038577809",
        "geo": "23.988553373284326, 121.58537973850227",
        "google_map": "https://maps.app.goo.gl/LDDJZgq8eHit1Yq59",
        "footinder": "https://footinder.com.tw/%E8%8A%B1%E8%93%AE%E7%B8%A3%E5%90%89%E5%AE%89%E9%84%89/60785/",
        "official": "https://www.facebook.com/lltnoodle/",
        "award": [
            {
                "name": "台北國際牛肉麵節",
                "year": "2024",
                "group": "鮮食組",
                "cooking_style": "紅燒",
                "rank": "銀牌"
            }
        ]
    },
    {
        "city": "高雄市",
        "district": "三民區",
        "name": "渝味食記重慶小麵－高醫店",
        "food_type": [
            "台式",
            "牛肉麵"
        ],
        "address": "807高雄市三民區吉林街243號",
        "phone": "073229445",
        "geo": "22.64771817418659, 120.30650614059422",
        "google_map": "https://maps.app.goo.gl/KT2RTydgXmdwd4uN7",
        "footinder": "https://footinder.com.tw/%e9%ab%98%e9%9b%84%e5%b8%82%e4%b8%89%e6%b0%91%e5%8d%80/362213/",
        "official": "https://www.facebook.com/profile.php?id=61563661050239",
        "award": [
            {
                "name": "台北國際牛肉麵節",
                "year": "2024",
                "group": "鮮食組",
                "cooking_style": "紅燒",
                "rank": "銀牌"
            }
        ]
    },
    {
        "city": "高雄市",
        "district": "苓雅區",
        "name": "渝味食記重慶小麵－武廟店",
        "food_type": [
            "台式",
            "牛肉麵"
        ],
        "address": "802高雄市苓雅區武廟路206號",
        "phone": "077223110",
        "geo": "22.63152816051882, 120.32525785913533",
        "google_map": "https://maps.app.goo.gl/UCTZ6k5VZ1oFE9rm6",
        "footinder": "",
        "official": "https://www.facebook.com/profile.php?id=61563661050239",
        "award": [
            {
                "name": "台北國際牛肉麵節",
                "year": "2024",
                "group": "鮮食組",
                "cooking_style": "紅燒",
                "rank": "銀牌"
            }
        ]
    },
    {
        "city": "基隆市",
        "district": "中山區",
        "name": "小羅牛肉麵",
        "food_type": [
            "台式",
            "牛肉麵"
        ],
        "address": "203基隆市中山區西定路113號",
        "phone": "0905272005",
        "geo": "25.134102660102265, 121.7347901926764",
        "google_map": "https://maps.app.goo.gl/RmQDEHfwEHpLRYMN9",
        "footinder": "https://footinder.com.tw/%E5%9F%BA%E9%9A%86%E5%B8%82%E4%B8%AD%E5%B1%B1%E5%8D%80/56178/",
        "official": "https://www.facebook.com/loviceva",
        "award": [
            {
                "name": "台北國際牛肉麵節",
                "year": "2024",
                "group": "鮮食組",
                "cooking_style": "紅燒",
                "rank": "銀牌"
            }
        ]
    },
    {
        "city": "高雄市",
        "district": "林園區",
        "name": "小胖山東麵館",
        "food_type": [
            "台式",
            "牛肉麵"
        ],
        "address": "832高雄市林園區福興街165號",
        "phone": "076417870",
        "geo": "22.506525164462335, 120.39394452104004",
        "google_map": "https://maps.app.goo.gl/q1xDx8rJ5cL4LCbh9",
        "footinder": "https://footinder.com.tw/%E9%AB%98%E9%9B%84%E5%B8%82%E6%9E%97%E5%9C%92%E5%8D%80/52751/",
        "official": "https://www.facebook.com/p/%E5%B1%B1%E6%9D%B1%E9%BA%B5%E9%A4%A8%E6%9E%97%E5%9C%92%E5%B0%8F%E8%83%96-100054458829815/",
        "award": [
            {
                "name": "台北國際牛肉麵節",
                "year": "2024",
                "group": "鮮食組",
                "cooking_style": "紅燒",
                "rank": "銅牌"
            }
        ]
    },
    {
        "city": "台北市",
        "district": "萬華區",
        "name": "御真牛餐館",
        "food_type": [
            "台式",
            "牛肉麵"
        ],
        "address": "108台北市萬華區成都路27巷3號",
        "phone": "0223033960",
        "geo": "25.042835397710764, 121.50689539862134",
        "google_map": "https://maps.app.goo.gl/F3PYdz4HMu2wS2xs8",
        "footinder": "https://footinder.com.tw/%E5%8F%B0%E5%8C%97%E5%B8%82%E8%90%AC%E8%8F%AF%E5%8D%80/63609/",
        "official": "https://www.instagram.com/real_cow23033960/",
        "award": [
            {
                "name": "台北國際牛肉麵節",
                "year": "2024",
                "group": "鮮食組",
                "cooking_style": "紅燒",
                "rank": "銅牌"
            }
        ]
    },
    {
        "city": "新北市",
        "district": "板橋區",
        "name": "皇家傳承牛肉麵",
        "food_type": [
            "台式",
            "牛肉麵"
        ],
        "address": "220新北市板橋區新海路134號",
        "phone": "0282585388",
        "geo": "25.023181305662096, 121.46105415252082",
        "google_map": "https://maps.app.goo.gl/Ep1F3oe8gws2bSBg7",
        "footinder": "https://footinder.com.tw/%E6%96%B0%E5%8C%97%E5%B8%82%E6%9D%BF%E6%A9%8B%E5%8D%80/6380/",
        "official": "https://www.royal-beefnoodles.com/",
        "award": [
            {
                "name": "台北國際牛肉麵節",
                "year": "2024",
                "group": "鮮食組",
                "cooking_style": "清燉",
                "rank": "金牌"
            },
            {
                "name": "台北國際牛肉麵節",
                "year": "2024",
                "group": "調理包組",
                "cooking_style": "清燉"
            }
        ]
    },
    {
        "city": "新北市",
        "district": "板橋區",
        "name": "皇家傳承",
        "food_type": [
            "台式",
            "牛肉麵"
        ],
        "address": "220新北市板橋區重慶路220-1號",
        "phone": "0229563718",
        "geo": "25.00201832430965, 121.46265156858681",
        "google_map": "https://maps.app.goo.gl/h6dmCYKp2qrHfvYE6",
        "footinder": "https://footinder.com.tw/%e6%96%b0%e5%8c%97%e5%b8%82%e6%9d%bf%e6%a9%8b%e5%8d%80/37562/",
        "official": "https://www.royal-beefnoodles.com/",
        "award": [
            {
                "name": "台北國際牛肉麵節",
                "year": "2024",
                "group": "鮮食組",
                "cooking_style": "清燉",
                "rank": "金牌"
            },
            {
                "name": "台北國際牛肉麵節",
                "year": "2024",
                "group": "調理包組",
                "cooking_style": "清燉"
            }
        ]
    },
    {
        "city": "台北市",
        "district": "北投區",
        "name": "皇家傳承牛肉麵-北榮門市",
        "food_type": [
            "台式",
            "牛肉麵"
        ],
        "address": "112台北市北投區石牌路二段201號",
        "phone": "0228747328",
        "geo": "25.120234722327275, 121.51979954385513",
        "google_map": "https://maps.app.goo.gl/RDn9DcUoeH9sqKFg8",
        "footinder": "https://footinder.com.tw/%e5%8f%b0%e5%8c%97%e5%b8%82%e5%8c%97%e6%8a%95%e5%8d%80/43412/",
        "official": "https://www.royal-beefnoodles.com/",
        "award": [
            {
                "name": "台北國際牛肉麵節",
                "year": "2024",
                "group": "鮮食組",
                "cooking_style": "清燉",
                "rank": "金牌"
            },
            {
                "name": "台北國際牛肉麵節",
                "year": "2024",
                "group": "調理包組",
                "cooking_style": "清燉"
            }
        ]
    },
    {
        "city": "台北市",
        "district": "北投區",
        "name": "皇家傳承牛肉麵-亞東門市",
        "food_type": [
            "台式",
            "牛肉麵"
        ],
        "address": "220新北市板橋區南雅南路二段21號",
        "phone": "0289665168",
        "geo": "24.998040656992913, 121.4532464851711",
        "google_map": "https://maps.app.goo.gl/3KeDif9LivY22Um39",
        "footinder": "https://footinder.com.tw/%e6%96%b0%e5%8c%97%e5%b8%82%e6%9d%bf%e6%a9%8b%e5%8d%80/24497/",
        "official": "https://www.royal-beefnoodles.com/",
        "award": [
            {
                "name": "台北國際牛肉麵節",
                "year": "2024",
                "group": "鮮食組",
                "cooking_style": "清燉",
                "rank": "金牌"
            },
            {
                "name": "台北國際牛肉麵節",
                "year": "2024",
                "group": "調理包組",
                "cooking_style": "清燉"
            }
        ]
    },
    {
        "city": "台北市",
        "district": "北投區",
        "name": "皇家傳承牛肉麵-桃機門市-(第二航廈B2)",
        "food_type": [
            "台式",
            "牛肉麵"
        ],
        "address": "337桃園市大園區航站南路9號B2",
        "phone": "033833865",
        "geo": "25.07662498169683, 121.23229183124404",
        "google_map": "https://maps.app.goo.gl/cLeD9Jy7UVy57i7DA",
        "footinder": "",
        "official": "https://www.royal-beefnoodles.com/",
        "award": [
            {
                "name": "台北國際牛肉麵節",
                "year": "2024",
                "group": "鮮食組",
                "cooking_style": "清燉",
                "rank": "金牌"
            },
            {
                "name": "台北國際牛肉麵節",
                "year": "2024",
                "group": "調理包組",
                "cooking_style": "清燉"
            }
        ]
    },
    {
        "city": "台北市",
        "district": "北投區",
        "name": "皇家傳承牛肉麵-桃機門市(第二航廈4F)",
        "food_type": [
            "台式",
            "牛肉麵"
        ],
        "address": "337桃園市大園區航站南路9號4樓",
        "phone": "033833885",
        "geo": "25.07675051664456, 121.23199356911401",
        "google_map": "https://maps.app.goo.gl/dXCiHjctfiH7Vrei6",
        "footinder": "https://footinder.com.tw/%e6%a1%83%e5%9c%92%e5%b8%82%e5%a4%a7%e5%9c%92%e5%8d%80/63954/",
        "official": "https://www.royal-beefnoodles.com/",
        "award": [
            {
                "name": "台北國際牛肉麵節",
                "year": "2024",
                "group": "鮮食組",
                "cooking_style": "清燉",
                "rank": "金牌"
            },
            {
                "name": "台北國際牛肉麵節",
                "year": "2024",
                "group": "調理包組",
                "cooking_style": "清燉"
            }
        ]
    },
    {
        "city": "台北市",
        "district": "內湖區",
        "name": "達人麵館",
        "food_type": [
            "台式",
            "牛肉麵"
        ],
        "address": "114台北市內湖區環山路一段9巷7號",
        "phone": "0227989901",
        "geo": "25.082961288139547, 121.56600645040385",
        "google_map": "https://maps.app.goo.gl/fb7muVh6Ksfvafx76",
        "footinder": "https://footinder.com.tw/%e5%8f%b0%e5%8c%97%e5%b8%82%e5%85%a7%e6%b9%96%e5%8d%80/50268/",
        "official": "https://www.facebook.com/profile.php?id=100095059021569",
        "award": [
            {
                "name": "台北國際牛肉麵節",
                "year": "2024",
                "group": "鮮食組",
                "cooking_style": "清燉",
                "rank": "金牌"
            }
        ]
    },
    {
        "city": "新北市",
        "district": "中和區",
        "name": "癮-自在",
        "food_type": [
            "台式",
            "牛肉麵"
        ],
        "address": "235新北市中和區中安街70號",
        "phone": "",
        "geo": "25.00221962406057, 121.5124245684332",
        "google_map": "https://maps.app.goo.gl/g455zVGbFoSWbUqL7",
        "footinder": "https://footinder.com.tw/%e6%96%b0%e5%8c%97%e5%b8%82%e4%b8%ad%e5%92%8c%e5%8d%80/181100/",
        "official": "https://www.facebook.com/profile.php?id=100057685980048",
        "award": [
            {
                "name": "台北國際牛肉麵節",
                "year": "2024",
                "group": "鮮食組",
                "cooking_style": "清燉",
                "rank": "銀牌"
            }
        ]
    },
    {
        "city": "台東縣",
        "district": "台東市",
        "name": "阿牛牛肉麵",
        "food_type": [
            "台式",
            "牛肉麵"
        ],
        "address": "950台東縣台東市中華路一段83號",
        "phone": "089348830",
        "geo": "22.759193343429246, 121.15795717164498",
        "google_map": "https://maps.app.goo.gl/HerFrbwTxPr67V2t5",
        "footinder": "https://footinder.com.tw/%E5%8F%B0%E6%9D%B1%E7%B8%A3%E5%8F%B0%E6%9D%B1%E5%B8%82/177872/",
        "official": "https://089-348830.weebly.com/",
        "award": [
            {
                "name": "台北國際牛肉麵節",
                "year": "2024",
                "group": "鮮食組",
                "cooking_style": "清燉",
                "rank": "銀牌"
            },
            {
                "name": "台北國際牛肉麵節",
                "year": "2024",
                "group": "鮮食組",
                "cooking_style": "樂齡創意",
                "rank": "金牌"
            },
            {
                "name": "台北國際牛肉麵節",
                "year": "2024",
                "group": "調理包組",
                "cooking_style": "紅燒"
            },
            {
                "name": "台北國際牛肉麵節",
                "year": "2024",
                "group": "調理包組",
                "cooking_style": "清燉"
            }
        ]
    },
    {
        "city": "台北市",
        "district": "士林區",
        "name": "道品牛肉麵",
        "food_type": [
            "台式",
            "牛肉麵"
        ],
        "address": "111台北市士林區後港街204號",
        "phone": "0228814982",
        "geo": "25.088321383805948, 121.52061092365555",
        "google_map": "https://maps.app.goo.gl/bhSS8nbgtDv5iTx89",
        "footinder": "",
        "official": "https://www.facebook.com/profile.php?id=61556085329279",
        "award": [
            {
                "name": "台北國際牛肉麵節",
                "year": "2024",
                "group": "鮮食組",
                "cooking_style": "清燉",
                "rank": "銀牌"
            },
            {
                "name": "台北國際牛肉麵節",
                "year": "2024",
                "group": "鮮食組",
                "cooking_style": "樂齡創意",
                "rank": "銀牌"
            }
        ]
    },
    {
        "city": "台北市",
        "district": "士林區",
        "name": "道品牛肉麵 士林夜市店",
        "food_type": [
            "台式",
            "牛肉麵"
        ],
        "address": "111台北市士林區大南路55號",
        "phone": "0963602751",
        "geo": "25.089129348429772, 121.52481887636193",
        "google_map": "https://maps.app.goo.gl/E4GADwSyUDPPDpbSA",
        "footinder": "",
        "official": "https://www.facebook.com/profile.php?id=61566541616239",
        "award": [
            {
                "name": "台北國際牛肉麵節",
                "year": "2024",
                "group": "鮮食組",
                "cooking_style": "清燉",
                "rank": "銀牌"
            },
            {
                "name": "台北國際牛肉麵節",
                "year": "2024",
                "group": "鮮食組",
                "cooking_style": "樂齡創意",
                "rank": "銀牌"
            }
        ]
    },
    {
        "city": "高雄市",
        "district": "三民區",
        "name": "道品牛肉麵 高雄旗艦店",
        "food_type": [
            "台式",
            "牛肉麵"
        ],
        "address": "807高雄市三民區建國二路281號",
        "phone": "072360236",
        "geo": "22.637542346637314, 120.30357635189918",
        "google_map": "https://maps.app.goo.gl/uWBTdygetedfBayp9",
        "footinder": "https://footinder.com.tw/%E9%AB%98%E9%9B%84%E5%B8%82%E4%B8%89%E6%B0%91%E5%8D%80/362215/",
        "official": "https://www.facebook.com/profile.php?id=61556557034544",
        "award": [
            {
                "name": "台北國際牛肉麵節",
                "year": "2024",
                "group": "鮮食組",
                "cooking_style": "清燉",
                "rank": "銀牌"
            },
            {
                "name": "台北國際牛肉麵節",
                "year": "2024",
                "group": "鮮食組",
                "cooking_style": "樂齡創意",
                "rank": "銀牌"
            }
        ]
    },
    {
        "city": "新北市",
        "district": "中和區",
        "name": "道品牛肉麵 中和景安店",
        "food_type": [
            "台式",
            "牛肉麵"
        ],
        "address": "235新北市中和區復興路71號",
        "phone": "0222429978",
        "geo": "24.990087261903398, 121.50379934636483",
        "google_map": "https://maps.app.goo.gl/jWRPJumoJoFqPUCQ9",
        "footinder": "",
        "official": "https://www.facebook.com/profile.php?id=61566541616239",
        "award": [
            {
                "name": "台北國際牛肉麵節",
                "year": "2024",
                "group": "鮮食組",
                "cooking_style": "清燉",
                "rank": "銀牌"
            },
            {
                "name": "台北國際牛肉麵節",
                "year": "2024",
                "group": "鮮食組",
                "cooking_style": "樂齡創意",
                "rank": "銀牌"
            }
        ]
    },
    {
        "city": "彰化縣",
        "district": "員林市",
        "name": "玖麵 牛肉麵",
        "food_type": [
            "台式",
            "牛肉麵"
        ],
        "address": "510彰化縣員林市莒光路422號",
        "phone": "048332260",
        "geo": "23.96171098826614, 120.56692958620958",
        "google_map": "https://maps.app.goo.gl/HzbC9MXh2D1DwHvP6",
        "footinder": "https://footinder.com.tw/%E5%BD%B0%E5%8C%96%E7%B8%A3%E5%93%A1%E6%9E%97%E5%B8%82/58478/",
        "official": "https://www.facebook.com/profile.php?id=100070920091825",
        "award": [
            {
                "name": "台北國際牛肉麵節",
                "year": "2024",
                "group": "鮮食組",
                "cooking_style": "清燉",
                "rank": "銅牌"
            }
        ]
    },
    {
        "city": "台南市",
        "district": "東區",
        "name": "黃先生麵舖",
        "food_type": [
            "台式",
            "牛肉麵"
        ],
        "address": "701台南市東區東平路174號",
        "phone": "0958185594",
        "geo": "22.99559693331438, 120.22902829984864",
        "google_map": "https://maps.app.goo.gl/wXgeBM6FaVFJDExa7",
        "footinder": "https://footinder.com.tw/%e5%8f%b0%e5%8d%97%e5%b8%82%e6%9d%b1%e5%8d%80/67078/",
        "official": "https://www.facebook.com/p/%E9%BB%83%E5%85%88%E7%94%9F%E9%BA%B5%E8%88%96-100086620549980/",
        "award": [
            {
                "name": "台北國際牛肉麵節",
                "year": "2024",
                "group": "鮮食組",
                "cooking_style": "清燉",
                "rank": "銅牌"
            }
        ]
    },
    {
        "city": "新北市",
        "district": "五股區",
        "name": "新九九牛肉麵",
        "food_type": [
            "台式",
            "牛肉麵"
        ],
        "address": "248新北市五股區成泰路三段247號",
        "phone": "0222928059",
        "geo": "25.093612604703925, 121.44652060392576",
        "google_map": "https://maps.app.goo.gl/tqMwNpdqCZUJAT3SA",
        "footinder": "https://footinder.com.tw/%E6%96%B0%E5%8C%97%E5%B8%82%E4%BA%94%E8%82%A1%E5%8D%80/61838/",
        "official": "https://www.facebook.com/profile.php?id=100085834876593",
        "award": [
            {
                "name": "台北國際牛肉麵節",
                "year": "2024",
                "group": "鮮食組",
                "cooking_style": "清燉",
                "rank": "銅牌"
            }
        ]
    },
    {
        "city": "新北市",
        "district": "五股區",
        "name": "新九九牛肉麵工商店",
        "food_type": [
            "台式",
            "牛肉麵"
        ],
        "address": "248新北市五股區工商路85巷2號",
        "phone": "0282956160",
        "geo": "25.084815697370455, 121.43777577094686",
        "google_map": "https://maps.app.goo.gl/p6gNghHa59717ccK8",
        "footinder": "https://footinder.com.tw/%E6%96%B0%E5%8C%97%E5%B8%82%E4%BA%94%E8%82%A1%E5%8D%80/61116/",
        "official": "https://www.facebook.com/profile.php?id=100085834876593",
        "award": [
            {
                "name": "台北國際牛肉麵節",
                "year": "2024",
                "group": "鮮食組",
                "cooking_style": "清燉",
                "rank": "銅牌"
            }
        ]
    },
    {
        "city": "台北市",
        "district": "大安區",
        "name": "竣師父牛肉麵",
        "food_type": [
            "台式",
            "牛肉麵"
        ],
        "address": "106台北市大安區大安路一段52巷24號一樓",
        "phone": "0905888123",
        "geo": "25.042979674003117, 121.54512414354234",
        "google_map": "https://maps.app.goo.gl/35eUntYsj1Rvcpcz7",
        "footinder": "https://footinder.com.tw/%E5%8F%B0%E5%8C%97%E5%B8%82%E5%A4%A7%E5%AE%89%E5%8D%80/136430/",
        "official": "https://www.facebook.com/masterjim168",
        "award": [
            {
                "name": "台北國際牛肉麵節",
                "year": "2024",
                "group": "鮮食組",
                "cooking_style": "樂齡創意",
                "rank": "金牌"
            }
        ]
    },
    {
        "city": "台北市",
        "district": "中正區",
        "name": "詩篇咖啡餐廳",
        "food_type": [
            "台式",
            "牛肉麵"
        ],
        "address": "100台北市中正區中山南路20號B1",
        "phone": "0223822666",
        "geo": "25.037147815773103, 121.51667019531996",
        "google_map": "https://maps.app.goo.gl/7QTEcPfYcJQHyFuH7",
        "footinder": "https://footinder.com.tw/%E5%8F%B0%E5%8C%97%E5%B8%82%E4%B8%AD%E6%AD%A3%E5%8D%80/82/",
        "official": "https://www.facebook.com/PsalmsCafe",
        "award": [
            {
                "name": "台北國際牛肉麵節",
                "year": "2024",
                "group": "鮮食組",
                "cooking_style": "樂齡創意",
                "rank": "銀牌"
            },
            {
                "name": "台北國際牛肉麵節",
                "year": "2024",
                "group": "調理包組",
                "cooking_style": "紅燒"
            }
        ]
    },
    {
        "city": "新北市",
        "district": "三峽區",
        "name": "老私房牛肉麵",
        "food_type": [
            "台式",
            "牛肉麵"
        ],
        "address": "237新北市三峽區國際一街66-1號1樓",
        "phone": "0286716200",
        "geo": "24.942176590197523, 121.37248716140101",
        "google_map": "https://maps.app.goo.gl/jfxtY51ijSGCUGRDA",
        "footinder": "https://footinder.com.tw/%E6%96%B0%E5%8C%97%E5%B8%82%E4%B8%89%E5%B3%BD%E5%8D%80/64664/",
        "official": "https://www.facebook.com/profile.php?id=100063614605929",
        "award": [
            {
                "name": "台北國際牛肉麵節",
                "year": "2024",
                "group": "鮮食組",
                "cooking_style": "樂齡創意",
                "rank": "銅牌"
            }
        ]
    },
    {
        "city": "台中市",
        "district": "大里區",
        "name": "淳心製麵",
        "food_type": [
            "台式",
            "牛肉麵"
        ],
        "address": "412台中市大里區科技路1-56號",
        "phone": "0424918327",
        "geo": "24.084892701340177, 120.69605130496906",
        "google_map": "https://maps.app.goo.gl/AekQkNCtP56zRTBEA",
        "footinder": "https://footinder.com.tw/%E5%8F%B0%E4%B8%AD%E5%B8%82%E5%A4%A7%E9%87%8C%E5%8D%80/136355/",
        "official": "https://www.facebook.com/Chunhsinnoodles/",
        "award": [
            {
                "name": "台北國際牛肉麵節",
                "year": "2024",
                "group": "鮮食組",
                "cooking_style": "樂齡創意",
                "rank": "銅牌"
            }
        ]
    },
    {
        "city": "台北市",
        "district": "松山區",
        "name": "海峽會",
        "food_type": [
            "台式",
            "牛肉麵"
        ],
        "address": "105台北市松山區敦化北路167號B1",
        "phone": "0277076789",
        "geo": "25.05476692436136, 121.54941270143397",
        "google_map": "https://maps.app.goo.gl/CQi3oEJ5mZYxSvjL6",
        "footinder": "https://footinder.com.tw/%E5%8F%B0%E5%8C%97%E5%B8%82%E6%9D%BE%E5%B1%B1%E5%8D%80/13141/",
        "official": "http://www.csclub.com.tw/",
        "award": [
            {
                "name": "台北國際牛肉麵節",
                "year": "2024",
                "group": "鮮食組",
                "cooking_style": "樂齡創意",
                "rank": "銅牌"
            }
        ]
    },
    {
        "city": "新北市",
        "district": "土城區",
        "name": "兩支北方麵食館 土城總店",
        "food_type": [
            "台式",
            "牛肉麵"
        ],
        "address": "236新北市土城區裕民路129號",
        "phone": "0222629888",
        "geo": "24.98663563235829, 121.45148826946365",
        "google_map": "https://maps.app.goo.gl/9cg9GSNsAnxNJoco9",
        "footinder": "https://footinder.com.tw/%e6%96%b0%e5%8c%97%e5%b8%82%e5%9c%9f%e5%9f%8e%e5%8d%80/5903/",
        "official": "https://www.facebook.com/top2food",    
        "award": [
            {
                "name": "台北國際牛肉麵節",
                "year": "2024",
                "group": "鮮食組",
                "cooking_style": "樂齡創意",
                "rank": "銅牌"
            }
        ]
    },
    {
        "city": "新北市",
        "district": "板橋區",
        "name": "兩支北方麵食館 板橋民族店",
        "food_type": [
            "台式",
            "牛肉麵"
        ],
        "address": "220新北市板橋區民族路261號",
        "phone": "0289645001",
        "geo": "25.00699255803673, 121.47053205369536",
        "google_map": "https://maps.app.goo.gl/yntUWG7Q8NYU9oiw5",
        "footinder": "https://footinder.com.tw/%e6%96%b0%e5%8c%97%e5%b8%82%e6%9d%bf%e6%a9%8b%e5%8d%80/40360/",
        "official": "https://www.facebook.com/top2food",    
        "award": [
            {
                "name": "台北國際牛肉麵節",
                "year": "2024",
                "group": "鮮食組",
                "cooking_style": "樂齡創意",
                "rank": "銅牌"
            }
        ]
    },
    {
        "city": "新北市",
        "district": "新莊區",
        "name": "兩支北方麵食館 新莊龍安店",
        "food_type": [
            "台式",
            "牛肉麵"
        ],
        "address": "242新北市新莊區龍安路319號",
        "phone": "0222051234",
        "geo": "25.019521417240796, 121.42174315738579",
        "google_map": "https://maps.app.goo.gl/dXxGVYrrh3M7rZtv7",
        "footinder": "https://footinder.com.tw/%e6%96%b0%e5%8c%97%e5%b8%82%e6%96%b0%e8%8e%8a%e5%8d%80/25007/",
        "official": "https://www.facebook.com/top2food",    
        "award": [
            {
                "name": "台北國際牛肉麵節",
                "year": "2024",
                "group": "鮮食組",
                "cooking_style": "樂齡創意",
                "rank": "銅牌"
            }
        ]
    },
    {
        "city": "新北市",
        "district": "板橋區",
        "name": "兩支北方麵食館 板橋溪洲店",
        "food_type": [
            "台式",
            "牛肉麵"
        ],
        "address": "220新北市板橋區溪北路93號",
        "phone": "0226755599",
        "geo": "24.989472472426765, 121.4285927042807",
        "google_map": "https://maps.app.goo.gl/Wq5CpxwRC3fhJyfW8",
        "footinder": "https://footinder.com.tw/%e6%96%b0%e5%8c%97%e5%b8%82%e6%9d%bf%e6%a9%8b%e5%8d%80/14146/",
        "official": "https://www.facebook.com/top2food",    
        "award": [
            {
                "name": "台北國際牛肉麵節",
                "year": "2024",
                "group": "鮮食組",
                "cooking_style": "樂齡創意",
                "rank": "銅牌"
            }
        ]
    },
    {
        "city": "",
        "district": "",
        "name": "藍海饌",
        "food_type": [
            "台式",
            "牛肉麵"
        ],
        "address": "",
        "phone": "",
        "geo": "",
        "google_map": "",
        "footinder": "",
        "official": "https://www.facebook.com/diamondofsea0523/",
        "award": [
            {
                "name": "台北國際牛肉麵節",
                "year": "2024",
                "group": "調理包組",
                "cooking_style": "紅燒"
            },
            {
                "name": "台北國際牛肉麵節",
                "year": "2024",
                "group": "調理包組",
                "cooking_style": "清燉"
            }
        ]
    },
    {
        "city": "",
        "district": "",
        "name": "食圓滿國際餐飲有限公司",
        "food_type": [
            "台式",
            "牛肉麵"
        ],
        "address": "",
        "phone": "",
        "geo": "",
        "google_map": "",
        "footinder": "",
        "official": "https://www.foodshop.com.tw/",
        "award": [
            {
                "name": "台北國際牛肉麵節",
                "year": "2024",
                "group": "調理包組",
                "cooking_style": "紅燒"
            }
        ]
    },
    {
        "city": "",
        "district": "",
        "name": "愷達生醫有限公司 (Gelovery 萬家饗念)",
        "food_type": [
            "台式",
            "牛肉麵"
        ],
        "address": "",
        "phone": "",
        "geo": "",
        "google_map": "",
        "footinder": "",
        "official": "https://www.gelovery.com/zh",
        "award": [
            {
                "name": "台北國際牛肉麵節",
                "year": "2024",
                "group": "調理包組",
                "cooking_style": "紅燒"
            }
        ]
    },
    {
        "city": "台北市",
        "district": "大安區",
        "name": "福容大飯店-台北一館",
        "food_type": [
            "台式",
            "牛肉麵"
        ],
        "address": "106台北市大安區建國南路一段266號",
        "phone": "0227019266",
        "geo": "25.036629451697564, 121.53738803257971",
        "google_map": "https://maps.app.goo.gl/GbUDKvsq5h8iAfgm7",
        "footinder": "",
        "official": "https://www.fullon-hotels.com.tw/tp/tw/",
        "award": [
            {
                "name": "台北國際牛肉麵節",
                "year": "2024",
                "group": "調理包組",
                "cooking_style": "紅燒"
            }
        ]
    },
    {
        "city": "桃園市",
        "district": "龍潭區",
        "name": "蔣府宴",
        "food_type": [
            "台式",
            "牛肉麵"
        ],
        "address": "325桃園市龍潭區高原路891號",
        "phone": "034716635",
        "geo": "24.831896992213164, 121.18647271201995",
        "google_map": "https://maps.app.goo.gl/sJMUDtRpuuQ82bL46",
        "footinder": "https://footinder.com.tw/%e6%a1%83%e5%9c%92%e5%b8%82%e9%be%8d%e6%bd%ad%e5%8d%80/59226/",
        "official": "https://www.chiangfuyan.com.tw/",
        "award": [
            {
                "name": "台北國際牛肉麵節",
                "year": "2024",
                "group": "調理包組",
                "cooking_style": "紅燒"
            },
            {
                "name": "台北國際牛肉麵節",
                "year": "2024",
                "group": "調理包組",
                "cooking_style": "清燉"
            }
        ]
    },
    {
        "city": "桃園市",
        "district": "大園區",
        "name": "復空食品",
        "food_type": [
            "台式",
            "牛肉麵"
        ],
        "address": "337桃園市大園區三民路一段538號",
        "phone": "033936999",
        "geo": "25.094836150811577, 121.24959832408382",
        "google_map": "https://maps.app.goo.gl/KWNtgv1CFVoUrb2t9",
        "footinder": "https://footinder.com.tw/%e6%a1%83%e5%9c%92%e5%b8%82%e5%a4%a7%e5%9c%92%e5%8d%80/362217/",
        "official": "https://www.facebook.com/gifthut/",
        "award": [
            {
                "name": "台北國際牛肉麵節",
                "year": "2024",
                "group": "調理包組",
                "cooking_style": "紅燒"
            }
        ]
    },
    {
        "city": "桃園市",
        "district": "大園區",
        "name": "長榮空廚(股)公司",
        "food_type": [
            "台式",
            "牛肉麵"
        ],
        "address": "337桃園市大園區航勤北路3號",
        "phone": "033513333",
        "geo": "25.08936789337848, 121.24888007887773",
        "google_map": "https://maps.app.goo.gl/6tAZubAw5QqV2WAx5",
        "footinder": "",
        "official": "https://www.egsc.com.tw/",
        "award": [
            {
                "name": "台北國際牛肉麵節",
                "year": "2024",
                "group": "調理包組",
                "cooking_style": "紅燒"
            }
        ]
    },
    {
        "city": "台北市",
        "district": "信義區",
        "name": "誠品行旅",
        "food_type": [
            "台式",
            "牛肉麵"
        ],
        "address": "110台北市信義區菸廠路98號",
        "phone": "0266262888",
        "geo": "25.04458227840682, 121.56201897364893",
        "google_map": "https://maps.app.goo.gl/mfRmyRW5sK5dSZCv8",
        "footinder": "",
        "official": "https://www.eslitehotel.com/",
        "award": [
            {
                "name": "台北國際牛肉麵節",
                "year": "2024",
                "group": "調理包組",
                "cooking_style": "紅燒"
            }
        ]
    },
    {
        "city": "",
        "district": "",
        "name": "煜勳餐飲有限公司",
        "food_type": [
            "台式",
            "牛肉麵"
        ],
        "address": "",
        "phone": "",
        "geo": "",
        "google_map": "",
        "footinder": "",
        "official": "",
        "award": [
            {
                "name": "台北國際牛肉麵節",
                "year": "2024",
                "group": "調理包組",
                "cooking_style": "清燉"
            }
        ]
    },
    {
        "city": "",
        "district": "",
        "name": "緒食餐飲股份有限公司",
        "food_type": [
            "台式",
            "牛肉麵"
        ],
        "address": "",
        "phone": "",
        "geo": "",
        "google_map": "",
        "footinder": "",
        "official": "",
        "award": [
            {
                "name": "台北國際牛肉麵節",
                "year": "2024",
                "group": "調理包組",
                "cooking_style": "清燉"
            }
        ]
    },
    {
        "city": "",
        "district": "",
        "name": "趣味飲食國際有限公司",
        "food_type": [
            "台式",
            "牛肉麵"
        ],
        "address": "",
        "phone": "",
        "geo": "",
        "google_map": "",
        "footinder": "",
        "official": "https://www.instagram.com/yi.shui2024",
        "award": [
            {
                "name": "台北國際牛肉麵節",
                "year": "2024",
                "group": "調理包組",
                "cooking_style": "清燉"
            }
        ]
    },
    {
        "city": "",
        "district": "",
        "name": "買多多國際股份有限公司",
        "food_type": [
            "台式",
            "牛肉麵"
        ],
        "address": "",
        "phone": "",
        "geo": "",
        "google_map": "",
        "footinder": "",
        "official": "",
        "award": [
            {
                "name": "台北國際牛肉麵節",
                "year": "2024",
                "group": "調理包組",
                "cooking_style": "清燉"
            }
        ]
    },
    {
        "city": "",
        "district": "",
        "name": "創鑫生機股份有限公司",
        "food_type": [
            "台式",
            "牛肉麵"
        ],
        "address": "",
        "phone": "",
        "geo": "",
        "google_map": "",
        "footinder": "",
        "official": "",
        "award": [
            {
                "name": "台北國際牛肉麵節",
                "year": "2024",
                "group": "調理包組",
                "cooking_style": "清燉"
            }
        ]
    },
    {
        "city": "",
        "district": "",
        "name": "統一企業(股)公司",
        "food_type": [
            "台式",
            "牛肉麵"
        ],
        "address": "",
        "phone": "",
        "geo": "",
        "google_map": "",
        "footinder": "",
        "official": "",
        "award": [
            {
                "name": "台北國際牛肉麵節",
                "year": "2024",
                "group": "調理包組",
                "cooking_style": "清燉"
            }
        ]
    }
]